{
    "IndustryInfo": {
        "industry": "民航机场",
        "describe": "民用机场，是指专供民用航空器起飞、降落、滑行、停放以及进行其他活动使用的划定区域，包括附属的建筑物、装置和设施。民用机场不包括临时机场和专用机场。民航机场作为国家的重点交通基础设施，可获得政府及民航局资本金支持，风险相对可控，行业内发债主体信用等级集中于AA级及以上，其中AA+级和AAA级发债主体占比超过80%，行业内主体信用质量较高。",
        "industry_code": "BK0420"
    },
    "pieIndustry": [
        {
            "value": 3.8964E10,
            "name": "南方航空"
        },
        {
            "value": 2.9645766E10,
            "name": "中国国航"
        },
        {
            "value": 2.5129E10,
            "name": "东方航空"
        },
        {
            "value": 1.1711856E10,
            "name": "海控Ｂ股"
        },
        {
            "value": 1.1711856E10,
            "name": "海航控股"
        },
        {
            "value": 2.6530434582360016E10,
            "name": "其他"
        }
    ],
    "totalCompanies": 14,
    "geo": [
        {
            "lng": 113.53876275227442,
            "lat": 23.17690644097641,
            "company_name": "中国南方航空股份有限公司",
            "stock_code": "600029",
            "industry_code": "BK0420"
        },
        {
            "lng": 121.78117141901282,
            "lat": 31.173326869615515,
            "company_name": "中国东方航空股份有限公司",
            "stock_code": "600115",
            "industry_code": "BK0420"
        },
        {
            "lng": 114.11752464300177,
            "lat": 22.549852845072984,
            "company_name": "中信海洋直升机股份有限公司",
            "stock_code": "000099",
            "industry_code": "BK0420"
        },
        {
            "lng": 110.35104677994688,
            "lat": 20.024038861099125,
            "company_name": "海南航空控股股份有限公司",
            "stock_code": "900945",
            "industry_code": "BK0420"
        },
        {
            "lng": 121.78376181051021,
            "lat": 31.17468913572483,
            "company_name": "上海航空股份有限公司",
            "stock_code": "600591",
            "industry_code": "BK0420"
        },
        {
            "lng": 118.11638704479765,
            "lat": 24.55452903252291,
            "company_name": "元翔(厦门)国际航空港股份有限公司",
            "stock_code": "600897",
            "industry_code": "BK0420"
        },
        {
            "lng": 121.60524652683668,
            "lat": 31.15709050498993,
            "company_name": "上海吉祥航空股份有限公司",
            "stock_code": "603885",
            "industry_code": "BK0420"
        },
        {
            "lng": 121.80490657116361,
            "lat": 31.169922573188703,
            "company_name": "上海国际机场股份有限公司",
            "stock_code": "600009",
            "industry_code": "BK0420"
        },
        {
            "lng": 110.35104677994688,
            "lat": 20.024038861099125,
            "company_name": "海南航空控股股份有限公司",
            "stock_code": "600221",
            "industry_code": "BK0420"
        },
        {
            "lng": 113.8195979376634,
            "lat": 22.63106190383031,
            "company_name": "深圳市机场股份有限公司",
            "stock_code": "000089",
            "industry_code": "BK0420"
        },
        {
            "lng": 121.42832909780088,
            "lat": 31.224132949810276,
            "company_name": "春秋航空股份有限公司",
            "stock_code": "601021",
            "industry_code": "BK0420"
        },
        {
            "lng": 106.80400402238877,
            "lat": 26.547827942884915,
            "company_name": "华夏航空股份有限公司",
            "stock_code": "002928",
            "industry_code": "BK0420"
        },
        {
            "lng": 113.30408421075335,
            "lat": 23.378068853811737,
            "company_name": "广州白云国际机场股份有限公司",
            "stock_code": "600004",
            "industry_code": "BK0420"
        },
        {
            "lng": 116.56794210079511,
            "lat": 40.073064928964904,
            "company_name": "中国国际航空股份有限公司",
            "stock_code": "601111",
            "industry_code": "BK0420"
        }
    ]
}